dsName,dsStatus,dsDistrict,dsAddress,dsLatitude,dsLongitude,HCCode,bkkZone,dsPhone
ร้านยาตะนาวเภสัช,1,เขตพระนคร,เลขที่ 478-480 ถนนตะนาว แขวงศาลเจ้าพ่อเสือ เขตพระนคร กรุงเทพมหานคร 10220,13.753751,100.498385,1,กรุงเทพกลาง,0 2224 2115
ร้านยาองค์การเภสัชกรรม สาขาราชเทวี,1,เขตราชเทวี,เลขที่ 75/1 ถนนพระราม 6 แขวงทุ่งพญาไท เขตราชเทวี กรุงเทพมหานคร 10400,13.766785,100.528108,2,กรุงเทพกลาง,"0 2203 8846, 08 4323 7273"
ร้านยาองค์การเภสัชกรรม สาขาเวชศาสตร์เขตร้อน,1,เขตราชเทวี,เลขที่ 420/6 ถนนราชวิถี แขวงทุ่งพญาไท เขตราชเทวี กรุงเทพมหานคร 10400,13.766919,100.533927,2,กรุงเทพกลาง,"0 2354 9061, 08 4329 0232"
สถานปฏิบัติการเภสัชกรรมชุมชน ม.มหิดล,1,เขตราชเทวี,เลขที่ 447 ถนนศรีอยุธยา แขวงทุ่งพญาไท เขตราชเทวี กรุงเทพมหานคร 10400,13.761279,100.528049,2,กรุงเทพกลาง,"0 2644 4609, 09 6812 3561"
ร้านยาชาลิสาเภสัช,1,เขตราชเทวี,เลขที่ 107/6 ซอยกิ่งเพชร ถนนเพชรบุรี แขวงพญาไท เขตราชเทวี กรุงเทพมหานคร 10400,13.753355,100.527833,2,กรุงเทพกลาง,0 2611 1178
ร้านยากรุงเทพ สาขารางน้ำ,1,เขตราชเทวี,เลขที่ 104/27 ถนนรางน้ำ แขวงพญาไท เขตราชเทวี กรุงเทพมหานคร 10400,13.759544,100.541048,2,กรุงเทพกลาง,0 2538 2229 ต่อ 97
ร้านยากรุงเทพ สาขาเพชรบุรี 43/1,1,เขตราชเทวี,เลขที่ 1633 ถนนเพชรบุรีตัดใหม่ แขวงมักกะสัน เขตราชเทวี กรุงเทพมหานคร 10400,13.749871,100.558764,2,กรุงเทพกลาง,0 2538 2229 ต่อ 55
ร้านยากรุงเทพ สาขาเพชรบุรี 5,1,เขตราชเทวี,เลขที่ 60/21 ซอยโรงแรมเพชรบุรี ถนนเพชรบุรี แขวงทุ่งพญาไท เขตราชเทวี กรุงเทพมหานคร 10400,13.756890,100.529001,2,กรุงเทพกลาง,0 2538 7900
ร้านยาศาลายา,1,เขตดินแดง,เลขที่ 32/8 ซอยประชาสงเคราะห์ 2 ถนนประชาสงเคราะห์ แขวงดินแดง เขตดินแดง กรุงเทพมหานคร 10400,13.762090,100.556215,4,กรุงเทพกลาง,"0 2245 4110, 08 5325 8103"
ร้านยาศาลาโอสถ,1,เขตดินแดง,เลขที่ 42/9 ถนนประชาสงเคราะห์ แขวงดินแดง เขตดินแดง กรุงเทพมหานคร 10400,13.767443,100.557448,4,กรุงเทพกลาง,08 4124 6247
ร้านยากรุงเทพ สาขาประชาสงเคราะห์ 2 (ตรงข้ามแยก 7),1,เขตดินแดง,เลขที่ 380 ซอยสุทธิสาร แขวงดินแดง เขตดินแดง กรุงเทพมหานคร 10240,13.761686,100.558092,4,กรุงเทพกลาง,0 2538 2229 ต่อ 126
สถานปฏิบัติการเภสัชกรรมชุมชน โอสถศาลา,1,เขตปทุมวัน,เลขที่ 22 อาคารโอสถศาลา ชั้น 1 - 2 ถนนพญาไท แขวงวังใหม่ เขตปทุมวัน กรุงเทพมหานคร 10330,13.744217,100.530750,5,กรุงเทพใต้,"0 2218 8428, 0 2218 8440"
ห้างขายยาเภสัชจุฬา,1,เขตยานนาวา,เลขที่ 620/78 ถนนสาธุประดิษฐ์ แขวงบางโพงพาง เขตยานนาวา กรุงเทพมหานคร 10120,13.679834,100.529465,7,กรุงเทพใต้,0 2682 0556
ร้านยาจตุธรรมเภสัช,1,เขตบางนา,เลขที่ 112/1675  หมู่ที่ 11 ซอยเคหะฯบางนา ถนนบางนา-ตราด กม.4 แขวงบางนา เขตบางนา กรุงเทพมหานคร 10260,13.665456,100.642142,8,กรุงเทพใต้,0 2746 9328
ร้านยาวิษณุเภสัช,1,เขตบางนา,เลขที่ 729 ซอยอุดมสุข ถนนสุขุมวิท แขวงบางนา เขตบางนา กรุงเทพมหานคร 10260,13.684875,100.615093,8,กรุงเทพใต้,0 2747 9652
ร้านยากรุงเทพ สาขาบางนา-ตราด 37,1,เขตบางนา,เลขที่ 9 ถนนเดอะพาร์ดแลนด์ แขวงบางนา เขตบางนา กรุงเทพมหานคร 10260,13.666770,100.650388,8,กรุงเทพใต้,0 2538 2229 ต่อ 64
ร้านยากรุงเทพ สาขาสุขุมวิท 103,1,เขตบางนา,เลขที่ 120 ซอยสุขุมวิท 103 ถนนสุขุมวิท แขวงบางนา เขตบางนา กรุงเทพมหานคร 10260,13.678787,100.612324,8,กรุงเทพใต้,0 2538 2229 ต่อ 14
ร้านยาเทเวศร์เภสัช,1,เขตพระนคร,เลขที่ 102/4 ถนนกรุงเกษม แขวงบางขุนพรม เขตพระนคร กรุงเทพมหานคร 10200,13.769153,100.504200,9,กรุงเทพกลาง,0 2281 0344
ร้านยาองค์การเภสัชกรรม สาขาเทเวศร์,1,เขตพระนคร,เลขที่ 226 ถนนสามเสน แขวงบางขุนพรหม เขตพระนคร กรุงเทพมหานคร 10200,13.768027,100.502177,9,กรุงเทพกลาง,0 2282 1170
ร้านยากรุงเทพ สาขาพระราม 4 (ซอยภูมิจิตร),1,เขตคลองเตย,เลขที่ 4858 ใกล้ซอยภูมิจิตร ถนนพระรามที่ 4 แขวงพระโขนง เขตคลองเตย กรุงเทพมหานคร 10110,13.713322,100.591605,10,กรุงเทพใต้,0 2538 2229 ต่อ 21
ร้านยากรุงเทพ สาขาอินทามระ 25,1,เขตพญาไท,เลขที่ 317 ถนนสุทธิสารวินิจฉัย แขวงสามเสนใน เขตพญาไท กรุงเทพมหานคร 10400,13.789497,100.558917,11,กรุงเทพกลาง,0 2538 2229 ต่อ 27
ร้านยากรุงเทพ สาขาเจริญกรุง 83/1,1,เขตบางคอแหลม,เลขที่ 2113 - 2115 ถนนเจริญกรุง แขวงวัดพระยาไกร เขตบางคอแหลม กรุงเทพมหานคร 10120,13.707630,100.508486,12,กรุงเทพใต้,0 2538 2229 ต่อ 131
ร้านยานวกิจ ดรักสโตร์,1,เขตสัมพันธวงศ์,เลขที่ 729 ถนนเจริญกรุง แขวงตลาดน้อย เขตสัมพันธวงศ์ กรุงเทพมหานคร 10100,13.736591,100.513689,13,กรุงเทพกลาง,08 1651 2771
ร้านยาลูกอินเภสัช 2,1,เขตบางคอแหลม,เลขที่ 139 ซอยเจริญกรุง 85 ถนนเจริญกรุง แขวงวัดพระยาไกร เขตบางคอแหลม กรุงเทพมหานคร 10120,13.706203,100.508934,14,กรุงเทพใต้,09 9447 1215
ร้านยากรุงเทพ สาขาตลาดสวนพลู,1,เขตสาทร,เลขที่ 506/2 ซอยสวนพลู ถนนสาทรใต้ แขวงทุ่งมหาเมฆ เขตสาทร กรุงเทพมหานคร 10120,13.719095,100.538886,14,กรุงเทพใต้,0 2538 2229 ต่อ 69
ร้านยา Health & Drugs,1,เขตห้วยขวาง,1451 ถนนลาดพร้าว แขวงสามเสนนอก เขตห้วยขวาง กรุงเทพมหานคร 10310,13.800680,100.583979,15,กรุงเทพกลาง,08 0448 7536
ร้านยากรุงเทพ สาขาลาดพร้าว 87,1,เขตวังทองหลาง,เลขที่ 2585/2 ใกล้ปากซอยลาดพร้าว 87 ถนนลาดพร้าว แขวงคลองเจ้าคุณสิงห์ เขตวังทองหลาง กรุงเทพมหานคร 10310,13.781368,100.618522,15,กรุงเทพกลาง,0 2538 2229 ต่อ 34
ร้านยากรุงเทพ สาขาลาดพร้าว 80 แยก 22,1,เขตวังทองหลาง,เลขที่ 35/2 ซอยลาดพร้าว 80 ถนนลาดพร้าว แขวงวังทองหลาง เขตวังทองหลาง กรุงเทพมหานคร 10310,13.782884,100.601254,15,กรุงเทพกลาง,0 2538 2229 ต่อ 103
ร้านยากรุงเทพ สาขาเทพลีลา 1,1,เขตวังทองหลาง,เลขที่ 129/6 ซอยรามคำแหง 39 ถนนรามคำแหง แขวงพลับพลา เขตวังทองหลาง กรุงเทพมหานคร 10310,13.760431,100.611956,15,กรุงเทพกลาง,0 2538 2229 ต่อ 102
ร้านยาดรั๊กมาร์ก,1,เขตจตุจักร,เลขที่ 19 ห้อง 3126 ไทยพาณิชย์พาร์ค อีสต์ ถนนรัชดาภิเษก แขวงลาดยาว เขตจตุจักร กรุงเทพมหานคร 10900,13.827648,100.565851,17,กรุงเทพเหนือ,0 2973 9238
ร้านยาเภสัชลลิตา,1,เขตจตุจักร,เลขที่ 87/110 ถนนเทศบาลสงเคราะห์ แขวงลาดยาว เขตจตุจักร กรุงเทพมหานคร 10900,13.840178,100.550198,17,กรุงเทพเหนือ,0 2954 4361
ร้านยาPharma Store,1,เขตจตุจักร,เลขที่1883/14 ซอยพหลโยธิน 35 ถนนพหลโยธิน แขวงลาดยาว เขตจตุจักร กรุงเทพมหานคร 10900,13.831252,100.569089,17,กรุงเทพเหนือ,"08 2504 0380, 0 2034 7965"
ร้านยาลูกอินเภสัช,1,เขตบางคอแหลม,เลขที่ 655/28 ซอยเจริญราษฎร์ 7 แยก 29 (ซอยราษฎร์อุทิศ 2)แขวงบางโคล่ เขตบางคอแหลม กรุงเทพมหานคร 10120,13.692672,100.518763,18,กรุงเทพใต้,"0 2689 9105, 08 6984 0995"
ร้านยาฟาร์มาพลัส,1,เขตพญาไท,เลขที่ 47 ซอยพหลโยธิน 7 (ซอยอารีย์) ถนนพหลโยธิน แขวงสามเสนใน เขตพญาไท กรุงเทพมหานคร 10400,13.781577,100.544207,19,กรุงเทพเหนือ,0 2278 4679
ร้านยานนทวีเภสัช,1,เขตบางซื่อ,เลขที่ 1288 ซอยประชาชื่น 37 ถนนประชาชื่น แขวงบางซื่อ เขตบางซื่อ กรุงเทพมหานคร 10800,13.818357,100.516781,19,กรุงเทพเหนือ,08 6699 2831
ร้านยาคลองถม,1,เขตป้อมปราบศัตรูพ่าย,เลขที่ 499 ห้อง SD1 ถนนวรจักร แขวงป้อมปราบ เขตป้อมปราบศัตรูพ่าย กรุงเทพมหานคร 10100,13.746462,100.506901,20,กรุงเทพกลาง,0 2224 2060
ร้านยาศูนย์ยาเกอร์เท็คซ์,1,เขตป้อมปราบศัตรูพ่าย,เลขที่ 693 ถนนบำรุงเมือง แขวงคลองมหานาค เขตป้อมปราบศัตรูพ่าย กรุงเทพมหานคร 10100,13.760936,100.510785,20,กรุงเทพกลาง,"0 2282 8342 , 08 4088 7177"
ร้านยาองค์การเภสัชกรรม สาขายศเส,1,เขตป้อมปราบศัตรูพ่าย,เลขที่ 250 ถนนนครสวรรค์ แขวงวัดโสมนัส เขตป้อมปราบศัตรูพ่าย กรุงเทพมหานคร 10100,13.749943,100.516003,20,กรุงเทพกลาง,0 2222 5931
ร้านยานครเภสัช,1,เขตวัฒนา,เลขที่ 223/1 ซอยอ่อนนุช ถนนสุขุมวิท 77 แขวงพระโขนงเหนือ เขตวัฒนา กรุงเทพมหานคร 10110,13.710139,100.601069,21,กรุงเทพใต้,0 2311 0046
ร้านยากรุงเทพ สาขาสุขุมวิท 71,1,เขตวัฒนา,เลขที่ 70/1 ซอยสุขุมวิท 71 ถนนสุขุมวิท 71 แขวงพนะโขนง เขตวัฒนา กรุงเทพมหานคร 10110,13.715083,100.594881,21,กรุงเทพใต้,0 2538 2229 ต่อ 1
ร้านยากรุงเทพ สาขาปรีดีพนมยงค์ 40,1,เขตวัฒนา,เลขที่ 984/93 ระหว่างซอยปรีดีพนมยงค์40-42 ถนนสุขุมวิท แขวงคลองตันเหนือ เขตวัฒนา กรุงเทพมหานคร 10110,13.733090,100.597187,21,กรุงเทพใต้,0 2945 2298
ร้านยาอารยะเภสัช,1,เขตสวนหลวง,เลขที่ 2207 ถนนศรีนครินทร์ แขวงสวนหลวง เขตสวนหลวง กรุงเทพมหานคร 10250,13.721820,100.645656,22,กรุงเทพตะวันออก,"0 2322 2326, 08 7808 8640"
ร้านยากรุงเทพ สาขาอ่อนนุช 70/1,1,เขตประเวศ,เลขที่ 42 ซอยอ่อนนุช 70/1 ถนนอ่อนนุช แขวงประเวศ เขตประเวศ กรุงเทพมหานคร 10250,13.716349,100.654031,22,กรุงเทพตะวันออก,0 2538 2229 ต่อ 121
ร้านยากรุงเทพ สาขาอ่อนนุช 57,1,เขตประเวศ,เลขที่ 377/1 ถนนอ่อนนุช แขวงประเวศ เขตประเวศ กรุงเทพมหานคร 10250,13.719612,100.670773,22,กรุงเทพตะวันออก,0 2538 2229 ต่อ 110
ร้านยากรุงเทพ สาขาพัฒนาการ 61,1,เขตประเวศ,เลขที่ 187 ถนนพัฒนาการ แขวงประเวศ เขตประเวศ กรุงเทพมหานคร 10250,13.729097,100.656173,22,กรุงเทพตะวันออก,0 2538 2229 ต่อ 114
ร้านยาวินเภสัช,1,เขตบางรัก,เลขที่ 1433 ถนนเจริญกรุง แขวงสีลม เขตบางรัก กรุงเทพมหานคร 10500,13.720271,100.515926,23,กรุงเทพใต้,0 2237 1339
ร้านยาบ้านยามัยลาภ  ,1,เขตบางเขน,เลขที่ 40 ถนนรามอินทรา ซอยรามอินทรา 14 แขวงท่าแร้ง เขตบางเขน กรุงเทพมหานคร 10230 ,13.852856,100.629865,24,กรุงเทพเหนือ,08 6983 4993
ร้านยาพรพงษ์เภสัช,1,เขตบางเขน,เลขที่ 9/232 หมู่ที่ 4 ศูนย์การค้ารามอินทรา ถนนรามอินทรา แขวงอนุสาวรีย์ เขตบางเขน กรุงเทพมหานคร 10220,13.859031,100.645591,24,กรุงเทพเหนือ,0 2971 7955
ร้านยาบี ฟาร์มา,1,เขตบางเขน,เลขที่ 429 ถนนวัชรพล แขวงท่าแร้ง เขตบางเขน กรุงเทพมหานคร 10220,13.721872,100.777898,24,กรุงเทพเหนือ,08 0603 8281
ร้านยามิสเตอร์พิล,1,เขตบางเขน,เลขที่ 14 ยูนิต A 3 ซอยรามอินทรา 55/8 ถนนวัชรพล แขวงท่าแร้ง เขตบางเขน กรุงเทพมหานคร 10230,13.857524,100.642744,24,กรุงเทพเหนือ,08 6533 2896
ร้านยากรุงเทพ สาขาคู้บอน 27,1,เขตบางเขน,เลขที่ 11 ซ.คู้บอน 27 แยก 9 ถ.คู้บอน แขวงท่าแร้ง เขตบางเขน กรุงเทพมหานคร 10220,13.858583,100.665427,24,กรุงเทพเหนือ,0 2538 2229 ต่อ 70
ร้านยากรุงเทพ สาขารามอินทรา 21 (พีพี. เพลส),1,เขตบางเขน,เลขที่ 97/1 ซ.รามอินทรา 21 ถ.รามอินทรา แขวงอนุสาวรีย์ เขตบางเขน กรุงเทพมหานคร 10220,13.868777,100.619699,24,กรุงเทพเหนือ,0 2538 2229 ต่อ 130
ร้านยากรุงเทพ สาขาสุทธิสารวินิจฉัย,1,เขตห้วยขวาง,เลขที่ 1286 ถนนสุทธิสารวินิจฉัย แขวงห้วยขวาง เขตห้วยขวาง กรุงเทพมหานคร 10310,13.789711,100.574834,25,กรุงเทพกลาง,0 2538 2229 ต่อ 116
ร้านยานิตาเภสัช ,1,เขตธนบุรี,เลขที่  713 ถนนอิสรภาพ แขวงหิรัญรูจี เขตธนบุรี กรุงเทพมหานคร 10600,13.741521,100.492665,26,กรุงธนเหนือ,06 3362 4519
ร้านยาบ้านยาหนึ่ง,1,เขตธนบุรี,เลขที่ 97 ถนนอินทรพิทักษ์ แขวงบางยี่เรือ เขตธนบุรี กรุงเทพมหานคร 10600,13.734490,100.488545,27,กรุงธนเหนือ,"08 5557 0277, 09 1882 5241"
ร้านยาณัฐชนนคลังยา,1,เขตคลองสาน,เลขที่ 190 ถนนลาดหญ้า แขวงคลองสาน เขตคลองสาน กรุงเทพมหานคร 10600,13.726963,100.495453,28,กรุงธนเหนือ,0 2437 6440
ร้านยาเรือนยา สาขา 1,1,เขตคลองสาน,เลขที่ 44 ถนนอิสรภาพ แขวงสมเด็จเจ้าพระยา เขตคลองสาน กรุงเทพมหานคร 10600,13.730494,100.495932,29,กรุงธนเหนือ,0 2437 1367
ร้านยาทัสซึเมดิซีน,1,เขตจอมทอง,เลขที่ 5/12 ซอยสุขสวัสดิ์ 26 ถนนสุขสวัสดิ์ แขวงบางมด เขตจอมทอง กรุงเทพมหานคร 10150,13.666880,100.480280,29,กรุงธนเหนือ,08 9559 9823
ร้านยาฟาร์มาชอพ,1,เขตจอมทอง,เลขที่ 31/128-129 ถนนเอกชัย แขวงบางขุนเทียน เขตจอมทอง กรุงเทพมหานคร 10150,13.724800,100.461952,29,กรุงธนเหนือ,0 2416 1605
ร้านยาสมายดรัก,1,เขตจอมทอง,เลขที่ 206 ซอย 44 ถนนพระราม 2 แขวงจอมทอง เขตจอมทอง กรุงเทพมหานคร 10150,13.685237,100.448626,29,กรุงธนเหนือ,08 5382 0880
ร้านยากรุงเทพ สาขาพระราม 2 ซอย 43,1,เขตจอมทอง,เลขที่ 973 ซอยพระรามที่ 2 ซอย 43 ถนนพระราม 2 แขวงบางมด เขตจอมทอง กรุงเทพมหานคร 10150,13.669046,100.457518,29,กรุงธนเหนือ,0 2538 2229 ต่อ 101
ร้านยาองค์การเภสัชกรรม สาขาจรัญสนิทวงศ์ 22,1,เขตบางกอกน้อย,เลขที่ 154/19-20 ถนนจรัญสนิทวงศ์ ปากซอยจรัญสนิทวงศ์ 22 แขวงบ้านช่างหล่อ เขตบางกอกน้อย กรุงเทพมหานคร 10700,13.748856,100.470112,30,กรุงธนเหนือ,0 2411 2118
ร้านยาบ้านจรัญ 3 เภสัช,1,เขตบางพลัด,เลขที่ 355 ถนนจรัญสนิทวงศ์ แขวงบางบำหรุ เขตบางพลัด กรุงเทพมหานคร 10700,13.779864,100.486984,31,กรุงธนเหนือ,0 2433 4909
ร้านยาบ้านยาอุ่นใจ ,1,เขตบางกอกใหญ่,เลขที่ 921/5 ถนนเพชรเกษม ซอยเพชรเกษม 4 แขวงวัดท่าพระ เขตบางกอกใหญ่  กรุงเทพมหานคร 10600,13.731761,100.482217,33,กรุงธนเหนือ,09 3141 3993
ร้านยาศูนย์ยา                                          ,1,เขตพระโขนง,เลขที่ 5/12 ซอยสุขุมวิท 54 ถนนสุขุมวิท แขวงพระโขนงใต้ เขตพระโขนง กรุงเทพมหานคร 10260,13.704956,100.600807,34,กรุงเทพใต้,0 2311 0226
ร้านยากรุงเทพ สาขา 101 The Third Place,1,เขตพระโขนง,เลขที่ 101 ห้อง 112-A ถนนสุขุมวิท แขวงบางจาก เขตพระโขนง กรุงเทพมหานคร 10260,13.686090,100.611355,34,กรุงเทพใต้,0 2538 2229 ต่อ 125
ร้านยากรุงเทพ สาขาอ่อนนุช 44 (พึ่งมี 50),1,เขตพระโขนง,เลขที่ 25/189 ซอยพึ่งมี 50 ถนนอ่อนนุช 44 แขวงบางจาก เขตพระโขนง กรุงเทพมหานคร 10260,13.701862,100.630563,34,กรุงเทพใต้,0 2538 2229 ต่อ 59
ร้านยากรุงเทพ สาขาสุขุมวิท 95,1,เขตพระโขนง,"เลขที่ 2363,2365 ถนนสุขุมวิท แขวงบางจาก เขตพระโขนง กรุงเทพมหานคร 10260",13.697997,100.605074,34,กรุงเทพใต้,0 2538 2229 ต่อ 56
ร้านยากรุงเทพ สาขาวชิรธรรมสาธิต 15,1,เขตพระโขนง,เลขที่ 339/2 ซอยสุขุมววิท 101/1 ถนนสุขุมวิท แขวงบางจาก เขตพระโขนง กรุงเทพมหานคร 10260,13.684773,100.618754,34,กรุงเทพใต้,0 2538 2229 ต่อ 61
ร้านยาพรประสิทธิ์ สาขา 2,1,เขตบางกะปิ,เลขที่ 5/5 ซอยกรุงเทพกรีฑา 7 ถนนกรุงเทพกรีฑา แขวงหัวหมาก เขตบางกะปิ กรุงเทพมหานคร 10240,13.749843,100.656803,35,กรุงเทพตะวันออก,"0 2735 8372, 09 3645 6608"
ร้านยากรุงเทพ สาขาลาดพร้าว 101,1,เขตบางกะปิ,เลขที่ 49 ซอยลาดพร้าว 101 ถนนลาดพร้าว 101 แขวงคลองจั่น เขตบางกะปิ กรุงเทพมหานคร 10240,13.792009,100.628099,35,กรุงเทพตะวันออก,0 2376 1048
ร้านยากรุงเทพ สาขาลาดพร้าว 132,1,เขตบางกะปิ,เลขที่ 3 ซอยลาดพร้าว 132 ถนนลาดพร้าว แขวงคลองจั่น เขตบางกะปิ กรุงเทพมหานคร 10310,13.771754,100.634401,35,กรุงเทพตะวันออก,0 2538 2229 ต่อ 66
ร้านยากรุงเทพ สาขารามคำแหง 24 แยก 18,1,เขตบางกะปิ,เลขที่ 324 ซอยรามคำแหง 24 ถนนรามคำแหง แขวงหัวหมาก เขตบางกะปิ กรุงเทพมหานคร 10240,13.753428,100.621194,35,กรุงเทพตะวันออก,0 2538 2229 ต่อ 8
ร้านยากรุงเทพ สาขารามคำแหง 36,1,เขตบางกะปิ,เลขที่ 450 ถนนรามคำแหง แขวงหัวหมาก เขตบางกะปิ กรุงเทพมหานคร 10240,13.761684,100.636661,35,กรุงเทพตะวันออก,0 2538 2229 ต่อ 118
ร้านยากรุงเทพ สาขาแฮปปี้แลนด์,1,เขตบางกะปิ,เลขที่ 769 ซอยศูนย์บันเทิงการค้า ถนนแฮปปี้แลนด์ สาย 1 แขวงคลองจั่น เขตบางกะปิ กรุงเทพมหานคร 10240,13.780655,100.643564,35,กรุงเทพตะวันออก,0 2538 2229 ต่อ 40
ร้านยากรุงเทพ สาขาเสรีไทย 7,1,เขตบางกะปิ,เลขที่ 2/1 ซอย 58(การเคหะแห่งชาติ) แขวงคลองจั่น เขตบางกะปิ กรุงเทพมหานคร 10240,13.776001,100.649392,35,กรุงเทพตะวันออก,0 2066 9207
ร้านยาสุณีเภสัช,1,เขตธนบุรี,เลขที่ 647 ถนนเจริญนคร แขวงบุคคโล เขตธนบุรี กรุงเทพมหานคร 10600,13.701801,100.488048,36,กรุงธนเหนือ,0 2476 7642
ร้านยาฟาร์มาชัวร์,1,เขตสวนหลวง,เลขที่ 1898 ปากซอยพัฒนาการ 50-52 ถนนพัฒนาการ แขวงสวนหลวง เขตสวนหลวง กรุงเทพมหานคร 10250,13.749587,100.637875,37,กรุงเทพใต้,0 2722 8075
ร้านยากรุงเทพ สาขาพัฒนาการ 20,1,เขตสวนหลวง,เลขที่ 702-702/1 ปากซอยพัฒนาการ 20 ถนนพัฒนาการ แขวงสวนหลวง เขตสวนหลวง กรุงเทพมหานคร 10250,13.737667,100.609161,37,กรุงเทพใต้,0 2538 2229 ต่อ 16
ร้านยากรุงเทพ สาขาพัฒนาการ 25,1,เขตสวนหลวง,เลขที่ 1319/1 ซอยพัฒนาการ 25 ถนนพัฒนาการ แขวงสวนหลวง เขตสวนหลวง กรุงเทพมหานคร 10250,13.738604,100.615911,37,กรุงเทพใต้,0 2717 5828-9
ร้านยากรุงเทพ สาขาศรีนครินทร์ 26,1,เขตสวนหลวง,เลขที่ 1168 ซอยศรีนครินทร์ 26 ถนนศรีนครินทร์ 26 แขวงสวนหลวง เขตสวนหลวง กรุงเทพมหานคร 10250,13.713574,100.643268,37,กรุงเทพใต้,0 2321 1241
ร้านยาสามหมอเภสัช,1,เขตดุสิต,เลขที่ 276/7 ถนนนครไชยศรี แขวงถนนนครไชยศรี เขตดุสิต กรุงเทพมหานคร 10300,13.786837,100.512489,38,กรุงเทพกลาง,0 2669 0244
ร้านยากรุงเทพ สาขาสามเสน 28,1,เขตดุสิต,"เลขที่ 62,64 ซอยองครักษ์ ถนนสานเสน แขวงถนนนครไชยศรี เขตดุสิต กรุงเทพมหานคร 10300",13.789877,100.516248,38,กรุงเทพกลาง,0 2538 2229 ต่อ 115
ร้านยา 102/2,1,เขตบางแค,เลขที่ 102/2 ซอยเพชรเกษม 102/2 ถนนเพชรเกษม แขวงบางแคเหนือ เขตบางแค กรุงเทพมหานคร 10160,13.708572,100.376860,40,กรุงธนใต้,0 2809 1881
ร้านยาทวีเกียรติเภสัช,1,เขตบางแค,เลขที่ 2/118 ซอยกาญจนาภิเษก 5 หมู่ที่ 9 หมู่บ้านสุขสันต์ 5 ถนนกาญจนาภิเษก  แขวงหลักสอง เขตบางแค กรุงเทพมหานคร 10160,13.689004,100.406064,40,กรุงธนใต้,08 1615 2402
ร้านยาแสงแพชรฟาร์มา ,1,เขตบางแค,เลขที่ 396 ถนนเพชรเกษม แขวงบางแคเหนือ เขตบางแค กรุงเทพมหานคร 10160,13.711869,100.417063,40,กรุงธนใต้,08 5114 9147
ร้านยาเภสัชกรหมู่บ้าน,1,เขตบางแค,เลขที่ 182 ถนนหมู่บานเศรษฐกิจ แขวงบางแคเหนือ เขตบางแค กรุงเทพมหานคร 10160,13.718044,100.377937,40,กรุงธนใต้,0 2421 8174
ร้านยากรุงเทพ สาขาเพชรเกษม 65/1,1,เขตบางแค,เลขที่ 1721 ซอยเพชรเกษฒ 65/1 ถนนเพชรเกษม แขวงหลักสอง เขตบางแค กรุงเทพมหานคร 10160,13.708765,100.383043,40,กรุงธนใต้,0 2538 2229 ต่อ 133
ร้านยากรุงเทพ สาขาหนองใหญ่,1,เขตบางแค,เลขที่ 1311/1 ซอยกาญจนาภิเษก 008 ถนนเพชรเกษม แขวงบางแค เขตบางแค กรุงเทพมหานคร 10160,13.692894,100.414966,40,กรุงธนใต้,0 2538 2229 ต่อ 89
ร้านยาศิรภัทรเภสัช,1,เขตบางขุนเทียน,เลขที่ 69 ถนนท่าข้าม แขวงแสมดำ เขตบางขุนเทียน กรุงเทพมหานคร 10150,13.652641,100.443557,42,กรุงธนใต้,0 2895 6217
ร้านยาบ้านยา 28,1,เขตบางขุนเทียน,เลขที่ 218 ถนนท่าข้าม แขวงแสมดำ เขตบางขุนเทียน กรุงเทพมหานคร 10150,13.644495,100.444095,42,กรุงธนใต้,08 7773 3198
ร้านยาคลังยาซุปเปอร์ดี,1,เขตบางขุนเทียน,เลขที่ 37 ซอยเทียนทะเล 16 ถนนบางขุนเทียน-ชายทะเล แขวงแสมดำ เขตบางขุนเทียน กรุงเทพมหานคร 10150,13.641219,100.432074,42,กรุงธนใต้,06 4632 7614
ร้านยากรุงเทพ สาขาท่าข้าม 16,1,เขตบางขุนเทียน,เลขที่ 140 ถนนท่าข้าม แขวงแสมดำ เขตบางขุนเทียน กรุงเทพมหานคร 10150,13.649831,100.443511,42,กรุงธนใต้,0 2539 2229 ต่อ 112
ร้านยาฟาร์มาเฮ้าส์,1,เขตบางขุนเทียน,เลขที่ 8/7 ห้อง 7 ซีเจมอร์ ซอยพระรามที่ 2 ซอย 54 แยก 4 แขวงแสมดำ เขตบางขุนเทียน กรุงเทพมหานคร 10150,13.672114,100.439225,42,กรุงธนใต้,08 2919 4087
ร้านยาสุวัฒน์เภสัช,1,เขตมีนบุรี,เลขที่ 99/2 หมู่ที่ 13 ถนนสีหบุรานุกิจ แขวงมีนบุรี เขตมีนบุรี กรุงเทพมหานคร 10510,13.826478,100.723194,43,กรุงเทพตะวันออก,0 2517 5714
ร้านยายินดีเภสัช,1,เขตมีนบุรี,เลขที่ 36  ถนนรามคำแหง ซอยรามคำแหง 166 แขวงมีนบุรี เขตมีนบุรี กรุงเทพมหานคร 10510,13.812366,100.713581,43,กรุงเทพตะวันออก,08 1257 5917
ร้านยาศรีรัฐเภสัช,1,เขตมีนบุรี,เลขที่ 497 ซอยสีหบุรานุกิจ 15 ถนนสีหบุรานุกิจ แขวงมีนบุรี เขตมีนบุรี กรุงเทพมหานคร 10510,13.813104,100.728477,43,กรุงเทพตะวันออก,"0 2517 4053, 08 7680 1330 "
ร้านยากรุงเทพ สาขาหทัยราษฎร์,1,เขตมีนบุรี,เลขที่ 133/9 ถนนหทัยราษฎร์ แขวงมีนบุรี เขตมีนบุรี กรุงเทพมหานคร 10510,13.829801,100.719975,43,กรุงเทพตะวันออก,0 2538 2229 ต่อ 18
ร้านยากรุงเทพ สาขาเอื้ออาทรมีนบุรี,1,เขตมีนบุรี,เลขที่ 33 ซอยรามอินทรา 127 ถนนรามอินทรา แขวงมีนบุรี เขตมีนบุรี กรุงเทพมหานคร 10510,13.817771,100.715226,43,กรุงเทพตะวันออก,0 2538 2229 ต่อ 68
ร้านยากรุงเทพ สาขาเคหะชุมชนรามคำแหง,1,เขตมีนบุรี,เลขที่ 1/54 ซอยรามคำแหง 190/2 ถนนรามคำแหง แขวงมีนบุรี เขตมีนบุรี กรุงเทพมหานคร 10510.,13.803006,100.729921,43,กรุงเทพตะวันออก,0 2538 2229 ต่อ 33
ร้านยาเจริญช่างเภสัช,1,เขตมีนบุรี,เลขที่ 41/6 หมู่ที่ 8 ถนนราษฎร์อุทิศ แขวงแสนแสบ เขตมีนบุรี กรุงเทพมหานคร 10510,13.840881,100.781184,44,กรุงเทพตะวันออก,09 0978 9394
ร้านยาร่มเกล้าฟาร์มาซี,1,เขตหนองจอก,เลขที่ 32/7 ห้อง M2 ปากซอย 39 ถนนสังฆสันสันติสุข แขวงกระทุ่มราย เขตหนองจอก กรุงเทพมหานคร 10530 ,13.864157,100.884168,44,กรุงเทพตะวันออก,08 6911 1367
ร้านยามหานคร,1,เขตลาดกระบัง,เลขที่ 299/9 ซอยเคหะร่มเกล้า 31 แขวงคลองสองต้นนุ่น เขตลาดกระบัง กรุงเทพมหานคร 10520,13.768197,100.720775,45,กรุงเทพตะวันออก,"0 2916 0600, 09 7945 0911"
ร้านยากรุงเทพ สาขาเคหะร่มเกล้า 25,1,เขตลาดกระบัง,เลขที่ 360/4 ซอยเคหะร่มเกล้า 25 ถนนเคหะร่มเกล้า แขวงคลองสองต้นนุ่น เขตลาดกระบัง กรุงเทพมหานคร 10520,13.768030,100.732577,45,กรุงเทพตะวันออก,0 2538 2229 ต่อ 51
ร้านยาปรีดาเภสัช    ,1,เขตลาดกระบัง,เลขที่ 18/71 หมู่ที่ 1 ถนนสุขุมวิท 77 แขวงลาดกระบัง เขตลาดกระบัง กรุงเทพมหานคร 10520,13.722069,100.787083,46,กรุงเทพตะวันออก,0 2326 9374
ร้านยากรุงเทพ สาขา ปตท. สุวรรณภูมิ - ลาดกระบัง ,1,เขตลาดกระบัง,เลขที่ 608/4 ถนนหลวงแพ่ง แขวงทับยาว เขตลาดกระบัง กรุงเทพมหานคร 10520,13.721041,100.792738,46,กรุงเทพตะวันออก,0 2538 2229 ต่อ 136
ร้านยารุ่งแสงจันทร์เภสัช,1,เขตภาษีเจริญ,เลขที่ 131/4 ถนนเพชรเกษม แขวงบางหว้า เขตภาษีเจริญ กรุงเทพมหานคร 10160,13.717487,100.450007,47,กรุงธนใต้,0 2869 5463
ร้านยาดีดีเภสัช,1,เขตหนองแขม,เลขที่ 71/13 หมู่ที่ 2 ซอยเพชรเกษม 81/1 ถนนเพชรเกษม แขวงหนองค้างพลู เขตหนองแขม กรุงเทพมหานคร 10160,13.713496,100.342221,48,กรุงธนใต้,08 1834 8368
ร้านยาบ้านยาเภสัช,1,เขตหนองแขม,เลขที่ 263 ถนนมาเจริญ แขวงหนองแขม เขตหนองแขม กรุงเทพมหานคร 10160,13.690755,100.330290,48,กรุงธนใต้,0 2429 3439
ร้านยาชวัลเวชเภสัช,1,เขตหนองแขม,เลขที่ 324 ถนนเลียบคลองภาษีเจริญฝั่งใต้ แขวงหนองแขม เขตหนองแขม กรุงเทพมหานคร 10160,13.678337,100.361412,48,กรุงธนใต้,08 9677 1969
ร้านยาฟาร์แม็ก Pharmax,1,เขตตลิ่งชัน,"โครงการฟู้ดวิลล่าราชพฤกษ์ เลขที่ 77 ชั้น 1 อาคาร F ห้องเลขที่ F06, F07, F08  ซอยบางระมาด เขตตลิ่งชัน กรุงเทพมหานคร 10170",13.770921,100.444848,49,กรุงธนเหนือ,0 2408 9748
ร้านปันสุขเภสัช,1,เขตตลิ่งชัน,เลขที่ 474 ถนนสวนผัก แขวงตลิ่งชัน เขตตลิ่งชัน กรุงเทพมหานคร 10170,13.798100,100.437755,49,กรุงธนเหนือ,06 5385 2299
ร้านยากิตติเภสัช,1,เขตบึงกุ่ม,เลขที่ 99/188 หมู่ที่ 6 ซอยนวมินทร์ 70 ถนนนวมินทร์ แขวงคลองกุ่ม เขตบึงกุ่ม กรุงเทพมหานคร 10240,13.820427,100.653777,50,กรุงเทพตะวันออก,0 2947 7434
ร้านยานวมินทร์เภสัช,1,เขตบึงกุ่ม,เลขที่ 822/4 หมู่ที่ 10 ถนนนวมินทร์ แขวงคลองกุ่ม เขตบึงกุ่ม กรุงเทพมหานคร 10230,13.823400,100.650344,50,กรุงเทพตะวันออก,0 2944 2953
ร้านยากรุงเทพ สาขารามอินทรา 40,1,เขตบึงกุ่ม,เลขที่ 60/357 ซอยรามอินทรา 40 แยก 33 ถนนรามอินทรา แขวงคลองกุ่ม เขตบึงกุ่ม กรุงเทพมหานคร 10230,13.841653,100.641729,50,กรุงเทพตะวันออก,0 2538 2229 ต่อ 47
ร้านยากรุงเทพ สาขาประเสริฐมนูกิจ 44,1,เขตบึงกุ่ม,เลขที่ 23/28 ถนนประเสริฐมนูกิจ แขวงนวมินทร์ เขตบึงกุ่ม กรุงเทพมหานคร 10240,13.810380,100.649245,50,กรุงเทพตะวันออก,0 2538 2229 ต่อ 91
ร้านยากรุงเทพ สาขาเอื้ออาทรบึงกุ่ม (เสรีไทย 43),1,เขตบึงกุ่ม,เลขที่ 138/2 ซอยเสรีไทย 43 แยก 3 แขวงคลองกุ่ม เขตบึงกุ่ม กรุงเทพมหานคร 10510,13.787079,100.670464,50,กรุงเทพตะวันออก,0 2538 2229 ต่อ 124
ร้านยากรุงเทพ สาขาลาดพร้าว 18,1,เขตจตุจักร,เลขที่ 36/8 ซอยลาดพร้าว 18 ถนนลาดพร้าว แขวงจอมพล เขตจตุจักร กรุงเทพมหานคร 10900,13.806646,100.569871,51,กรุงเทพเหนือ,0 2538 2229 ต่อ 132
ร้านยากรุงเทพ สาขาพหลโยธิน 34,1,เขตจตุจักร,เลขที่ 1340/1 ซอยพหลโยธิน 34 แขวงเสนานิคม เขตจตุจักร กรุงเทพมหานคร 10230,13.837590,100.582475,51,กรุงเทพเหนือ,0 2538 2229 ต่อ 54
ร้านยาวรรณ ฟาร์มาซิส,1,เขตจตุจักร,เลขที่ 1567/1 ซอยเสนานิคม 2 ถนนพหลโยธิน เขตจตุจักร กรุงเทพมหานคร 10900,13.838520,100.582529,51,กรุงเทพเหนือ,06 1636 5519
ร้านยารวมเภสัชกร,1,เขตดินแดง,เลขที่ 2000/21 ล็อค 6 ปากซอยประชาสงเคราะห์ 36 ถนนประชาสงเคราะห์ แขวงดินแดง เขตดินแดง กรุงเทพมหานคร 10400,13.778366,100.570366,52,กรุงเทพกลาง,0 2277 8676
ร้านยาองค์การเภสัชกรรม สาขาศูนย์ราชการเฉลิมพระเกียรติฯ,1,เขตหลักสี่,เลขที่ 120 หมู่ที่ 3 ถนนแจ้งวัฒนะ แขวงทุ่งสองห้อง เขตหลักสี่ กรุงเทพมหานคร 10210,13.889061,100.564440,53,กรุงเทพเหนือ,"0 2143 8768, 08 4329 0225"
ร้านกนกเภสัช,1,เขตหลักสี่,เลขที่ 207/112 ถนนงามวงศ์วาน แขวงทุ่งสองห้อง เขตหลักสี่ กรุงเทพมหานคร 10210,13.863036,100.549677,53,กรุงเทพเหนือ,0 2539 1680
ร้านยากรุงเทพ สาขางามวงศ์วาน 47 (ชินเขต 2),1,เขตหลักสี่,เลขที่ 345/2 ซ.งามวงศ์วาน 47 แยก 42(ชินเขต 2/40) ถ.งามวงศ์วาน แขวงทุ่งสองห้อง เขตหลักสี่ กรุงเทพมหานคร 10210,13.870237,100.557983,53,กรุงเทพเหนือ,0 2538 2229 ต่อ 75
ร้านยาคลินิกยา (พุทธบูชา),1,เขตทุ่งครุ,เลขที่ 337 ถนนพุทธบูชา แขวงบางมด เขตทุ่งครุ กรุงเทพมหานคร 10140 ,13.652022,100.488008,54,กรุงธนใต้,08 1598 6888
ร้านยาสาธุ 2 เภสัช,1,เขตยานนาวา,เลขที่ 7/44 ถนนสาธุประดิษฐ์ แขวงช่อนนทรี เขตยานนาวา กรุงเทพมหานคร 10120,13.705483,100.529089,55,กรุงเทพใต้,"09 2774 7920, 0 2674 8189"
ร้านยากนก ฟาร์มาเชน (ศรีวรา),1,เขตวังทองหลาง,เลขที่ 1209 ซอยลาดพร้าว 94 แขวงพลับพลา เขตวังทองหลาง กรุงเทพมหานคร 10310,13.773265,100.612822,56,กรุงเทพตะวันออก,0 2538 4906
ร้านยาเมดไลฟ์พลัส,1,เขตบางกะปิ,เลขที่ 249 อาคาร 24 เฮ้าส์ ชั้น 1 ห้องเลขที่ 111 ซอยโยธินพัฒนา ถนนประดิษฐ์มนูธรรม แขวงคลองจั่น เขตบางกะปิ กรุงเทพมหานคร 10240,13.809714,100.620435,56,กรุงเทพตะวันออก,08 4699 4599
ร้านยารามาฟาร์มาซี,1,เขตประเวศ,เลขที่ 61 ศูนย์การค้าพาราไดซ์พาร์ค ถนนศรีนครินทร์ แขวงหนองแขม เขตประเวศ กรุงเทพมหานคร 10250,13.686610,100.647964,57,กรุงเทพตะวันออก,0 2787 1465
ร้านศูนย์รวมยาสวนหลวง,1,เขตประเวศ,เลขที่ 256 ถนนเฉลิมพระเกียรติ ร.9 แขวงหนองบอน เขตประเวศ กรุงเทพมหานคร 10250,13.677732,100.662897,57,กรุงเทพตะวันออก,08 6568 3909
ร้านยารวมเภสัช,1,เขตราษฎร์บูรณะ,เลขที่ 99 ซอยสุขสวัสดิ์ 26 ถนนสุขสวัสดิ์ แขวงบางปะกอก เขตราษฎร์บูรณะ กรุงเทพมหานคร 10140,13.793562,100.563049,58,กรุงธนใต้,0 2427 6675
ร้านยาคลังสุขภาพ,1,เขตทุ่งครุ,"เลขที่ 338, 340 ถนนประชาอุทิศ แขวงทุ่งครุ เขตทุ่งครุ กรุงเทพมหานคร 10140 ",13.628954,100.504579,59,กรุงธนใต้,0 2873 8807
ร้านยาชัยมงคลเภสัช,1,เขตดอนเมือง,เลขที่ 455 ถนนช่างอากาศอุทิศ แขวงดอนเมือง เขตดอนเมือง กรุงเทพมหานคร 10210,13.925961,100.584688,60,กรุงเทพเหนือ,"0 2928 1694, 08 1441 9137"
ร้านยาจ๋าเภสัช,1,เขตดอนเมือง,เลขที่ 48/104 ถนนนาวงประชาพัฒนา แขวงสีกัน เขตดอนเมือง กรุงเทพมหานคร 10210,14.005861,100.578894,60,กรุงเทพเหนือ,08 5121 2129
ร้านยารักตยามาร์เก็ตติ้ง,1,เขตดอนเมือง,เลขที่ 310/70 ถนนสรงประภา แขวงสีกัน เขตดอนเมือง กรุงเทพมหานคร 10210,13.927058,100.594906,60,กรุงเทพเหนือ,"08 6078 9570, 0 2566 1198 "
ร้านยามะกอกเภสัช,1,เขตดอนเมือง,เลขที่ 111/502 หมู่ที่ 6 ถนนนาวงประชาพัฒนา แขวงสีกัน เขตดอนเมือง กรุงเทพมหานคร 10210,13.950847,100.572783,60,กรุงเทพเหนือ,0 2929 1722
ร้านยาสองเภสัชสายไหม,1,เขตสายไหม,เลขที่ 299/1 ซอยสามไหม 33/1 ถนนสายไหม แขวงสายไหม เขตสายไหม กรุงเทพมหานคร 10220,13.921846,100.655089,61,กรุงเทพเหนือ,08 6884 5342
ร้านยากรุงเทพ สาขาเพิ่มสิน 28,1,เขตสายไหม,เลขที่ 173/2 แขวงคลองถนน เขตสายไหม กรุงเทพมหานคร 10220,13.900093,100.635081,61,กรุงเทพเหนือ,0 2538 2229 ต่อ 128
ร้านยากรุงเทพ สาขาพหลโยธิน 52 แยก16,1,เขตสายไหม,เลขที่ 363/535 ถนนพหลโยธิน (แยกจากหมู่ที่ 6 เดิม) แขวงคลองถนน เขตสายไหม กรุงเทพมหานคร 10220,13.893747,100.615664,61,กรุงเทพเหนือ,0 2552 8315
ร้านยากรุงเทพ สาขาพหลโยธิน 62,1,เขตสายไหม,เลขที่ 11/8 ปากซอยพหลโยธิน 62 ถนนพหลโยธิน แขวงสายไหม เขตสายไหม กรุงเทพมหานคร 10220,13.940756,100.624316,61,กรุงเทพเหนือ,0 2538 2229 ต่อ 53
สถานปฏิบัติการเภสัชกรรมชุมชนโอสถสยาม,1,เขตภาษีเจริญ,มหาวิทยาลัยสยาม ถนนเพชรเกษม แขวงบางหว้า เขตภาษีเจริญ กรุงเทพมหานคร 10160,14.065382,100.604876,62,กรุงธนใต้,0 2869 7059
ร้านสวัสดีคลังยา,1,เขตภาษีเจริญ,เลขที่ 316 ปากซอยเพชรเกษม 48 ถนนเพชรเกษม แขวงบางหว้า เขตภาษีเจริญ กรุงเทพมหานคร 10160,13.715664,100.444507,62,กรุงธนใต้,0 2467 4044
ร้านยาพุฒิพงษ์เภสัช,1,เขตสาทร,เลขที่ 269 ถนนจันทน์ ซอยจันทน์ 18/7 แขวงทุ่งวัดดอน เขตสาทร กรุงเทพมหานคร 10120,13.723553,100.524248,63,กรุงเทพใต้,08 2703 7444
ร้านยาไมโครฟาร์มา,1,เขตสาทร,เลขที่ 234/9-10 ซอยจันทน์ 18/7 แยก 24 ถนนจันทน์ แขวงทุ่งวัดดอน เขตสาทร กรุงเทพมหานคร 10120,13.712548,100.526744,63,กรุงเทพใต้,0 2213 1515
ร้านยากรุงเทพ สาขาถนนจันทน์,1,เขตสาทร,เลขที่ 262 ใกล้ปากซอยถนนจันทน์ 18/5 แขวงทุ่งวังดอน เขตสาทร กรุงเทพมหานคร 10120,13.706328,100.528122,63,กรุงเทพใต้,0 2538 2229 ต่อ 20
ร้านยาบางชันเภสัช,1,เขตมีนบุรี,เลขที่ 23 ซอยพระยาสุเรนทร์ แขวงมีนบุรี เขตมีนบุรี กรุงเทพมหานคร 10510,13.813704,100.699022,64,กรุงเทพตะวันออก,0 2919 0180
ร้านยาเภสัชกรสุพรรณ 2,1,เขตคลองสามวา,เลขที่ 470 ซอยบางชัน ถนนพระยาสุเรนทร์ แขวงบางชัน เขตคลองสามวา กรุงเทพมหานคร 10510,13.833801,100.698350,64,กรุงเทพตะวันออก,"0 2002 9992, 09 4147 9422"
ร้านยากรุงเทพ สาขาพระยาสุเรนทร์ 9,1,เขตคลองสามวา,เลขที่ 60/390 ซอยพระยาสุเรนทร์ 9 ถนนพระยาสุเรนทร์ แขวงบางชัน เขตคลองสามวา กรุงเทพมหานคร 10510,13.827532,100.699083,64,กรุงเทพตะวันออก,0 2538 2229 ต่อ 103
ร้านยาบางบอน 5 เภสัช ,1,เขตบางบอน,เลขที่ 1373 ถนนเอกชัย แขวงบางบอน เขตบางบอน กรุงเทพมหานคร 10150 ,13.639168,100.372767,65,กรุงธนใต้,0 2892 4160
ร้านยามหาชน ,1,เขตลาดพร้าว,เลขที่ 9/60-61 ซอยลาดพร้าว 71 ถนนนาคนิวาศ แขวงลาดพร้าว เขตลาดพร้าว กรุงเทพมหานคร 10230,13.820888,100.608993,66,กรุงเทพเหนือ,0 2542 4219
ร้านยาพิทวัสเภสัช,1,เขตวังทองหลาง,เลขที่ 284 ถนนลาดพร้าว ซอยลาดพร้าว 87 แขวงคลองเจ้าคุณสิงห์ เขตวังทองหลาง กรุงเทพมหานคร 10310,13.788633,100.618402,66,กรุงเทพเหนือ,0 2932 2804
ร้านปักกิ่งฟาร์มาซี,1,เขตลาดพร้าว,เลขที่ 213 ซอยประเสริฐมนูกิจ 29 แขวงจรเข้บัว เขตลาดพร้าว กรุงเทพมหานคร 10230,13.842951,100.618119,66,กรุงเทพเหนือ,0 2362 4142
ร้านยากรุงเทพ สาขาโชคชัย 4 (กองปราบ),1,เขตลาดพร้าว,เลขที่ 93 ถนนโชคชัย 4 แขวงลาดพร้าว เขตลาดพร้าว กรุงเทพมหานคร 10230,13.804957,100.596605,66,กรุงเทพเหนือ,0 2538 2229 ต่อ 37
ร้านยากรุงเทพ สาขาโชคชัย 4 ซอย 51 (ต.รวมโชค),1,เขตลาดพร้าว,เลขที่ 7/57 ซอยโชคชัย 4 ซอย 51 แขวงลาดพร้าว เขตลาดพร้าว กรุงเทพมหานคร 10260,13.815640,100.596217,66,กรุงเทพเหนือ,0 2538 2229 ต่อ 60
ร้านยากรุงเทพ สาขาเสนานิเวศน์ 1,1,เขตลาดพร้าว,เลขที่ 39/90 ซอยเสนานิเวศน์ 115 ถนนเสนานิคม 1 แขวงจรเข้บัว เขตลาดพร้าว กรุงเทพมหานคร 10230,13.831402,100.606138,66,กรุงเทพเหนือ,0 2538 2229 ต่อ 57
ร้านยากรุงเทพ สาขาเสนานิคม 1 แยก 23,1,เขตลาดพร้าว,เลขที่ 339 ถนนเสนานิคม 1 แยก 23 แขวงลาดพร้าว เขตลาดพร้าว กรุงเทพมหานคร 10520,13.831814,100.597876,66,กรุงเทพเหนือ,0 2538 2229 ต่อ 95
ร้านยากรุงเทพ สาขาลาดปลาเค้า 63,1,เขตลาดพร้าว,เลขที่ 359 ซอยลาดปลาเค้า 63 ถนนลาดปลาเค้า แขวงจรเข้บัว เขตลาดพร้าว กรุงเทพมหานคร 10230,13.845861,100.601332,66,กรุงเทพเหนือ,0 2538 2229 ต่อ 25
ร้านยากรุงเทพ สาขานาคนิวาศ,1,เขตลาดพร้าว,เลขที่ 15/3 ซอยลาดพร้าว 71 (ใกล็ปากศอยนาคนิวาส 48) ถนนนาคนิวาส หมู่ 4 แขวงลาดพร้าว เขตลาดพร้าว กรุงเทพมหานคร 10230,13.820956,100.610516,66,กรุงเทพเหนือ,0 2538 2229 ต่อ 22
ร้านยากรุงเทพ สาขานาคนิวาศ 19,1,เขตลาดพร้าว,เลขที่ 18/8 ปากซอยนาคนิวาส 19 ถนนนาคนิวาส แขวงลาดพร้าว เขตลาดพร้าว กรุงเทพมหานคร 10230,13.803643,100.607507,66,กรุงเทพเหนือ,0 2538 2229 ต่อ 65
ร้านยานานายา,1,เขตทวีวัฒนา,"เลขที่ 29, 31 หมู่บ้านอมรชัย 3 แขวงศาลาธรรมสพน์ เขตทวีวัฒนา กรุงเทพมหานคร 10170
",13.791943,100.368909,67,กรุงธนเหนือ,0 2889 6826
ร้านยา 5 เค,1,เขตทวีวัฒนา,เลขที่ 18/19 ถนนพุทธมณฑลสาย 3 แขวงทวีวัฒนา เขตทวีวัฒนา กรุงเทพมหานคร 10170,13.758023,100.364066,67,กรุงธนเหนือ,0 2431 5620
ร้านยาบ้านยาสาย 3,1,เขตทวีวัฒนา,เลขที่ 295 ถนนพุทธมณฑลสาย 3 ซอย 28 แขวงศาลาธรรมสพน์ เขตทวีวัฒนา กรุงเทพมหานคร 10170,13.793378,100.367885,67,กรุงธนเหนือ,08 1904 7894
ร้านยาพรประสิทธิ์,1,เขตสะพานสูง,เลขที่ 100/607 ซอยนักกีฬา 10 ถนนนักกีฬาแหลมทอง แขวงสะพานสูง เขตสะพานสูง กรุงเทพมหานคร 10250,13.741116,100.694142,68,กรุงเทพตะวันออก,"0 2735 8372, 09 7089 7387"
ร้านยากรุงเทพ สาขารามคำแหง 118,1,เขตสะพานสูง,"เลขที่ 154, 156 ถนนรามคำแหง แขวงสะพานสูง เขตสะพานสูง กรุงเทพมหานคร 10250",13.779835,100.679007,68,กรุงเทพตะวันออก,0 2538 2229 ต่อ 46
ร้านยากัญจนาเภสัช,1,เขตคันนายาว,เลขที่ 4 ซอยรามอินทรา 67 ถนนรามอินทรา กม.7 แขวงคันนายาว เขตคันนายาว กรุงเทพมหานคร 10230,13.844374,100.653218,69,กรุงเทพตะวันออก,0 2510 6801
ร้านยากรุงเทพ สาขาสวนสยาม 30,1,เขตคันนายาว,เลขที่ 422 ถนนสวนสยาม แขวงคันนายาว เขตคันนายาว กรุงเทพมหานคร 10230,13.796594,100.690641,69,กรุงเทพตะวันออก,0 2538 2229 ต่อ 129
ร้านยากรุงเทพ สาขารามอินทรา 67,1,เขตคันนายาว,เลขที่ 131 ซอยรามอินทรา 67 ถนนรามอินทรา แขวงรามอินทรา เขตคันนายาว กรุงเทพมหานคร 10230,13.844254,100.652966,69,กรุงเทพตะวันออก,0 2538 2229 ต่อ 
